<?xml version="1.0" encoding="UTF-8"?>
<kml xmlns="http://earth.google.com/kml/2.0"
     xmlns:p="urn:ns:TeiSpe"
     xmlns:sch="urn:ns:sch"
     xmlns:T="urn:ns:Tei"
     version="1.1"
     creator="Guillaume Bolzonella">
   <metadata>
      <name>Transformation en fichier KML pour viasualisation avec Google earth</name>
      <desc>Livrable 4 partie 4</desc>
   </metadata>
   <Document>
      <Placemark>
         <name>Saint-Martin-du-Mont</name>
         <description>Saint-Martin-du-Mont</description>
         <Point>
            <coordinates>5.32834,46.10247</coordinates>
         </Point>
      </Placemark>
      <Placemark>
         <name>Saint-Juéry</name>
         <description>Saint-Juéry</description>
         <Point>
            <coordinates>2.21667,43.95</coordinates>
         </Point>
      </Placemark>
      <Placemark>
         <name>Saint-Guiraud</name>
         <description>Saint-Guiraud</description>
         <Point>
            <coordinates>3.45328,43.6762</coordinates>
         </Point>
      </Placemark>
      <Placemark>
         <name>La Chapelle-aux-Lys</name>
         <description>La Chapelle-aux-Lys</description>
         <Point>
            <coordinates>-0.65654,46.62964</coordinates>
         </Point>
      </Placemark>
      <Placemark>
         <name>Saint-Jurs</name>
         <description>Saint-Jurs</description>
         <Point>
            <coordinates>6.2,43.89857</coordinates>
         </Point>
      </Placemark>
      <Placemark>
         <name>Saint-Herblon</name>
         <description>Saint-Herblon</description>
         <Point>
            <coordinates>-1.09738,47.40786</coordinates>
         </Point>
      </Placemark>
      <Placemark>
         <name>Bellevue-la-Montagne</name>
         <description>Bellevue-la-Montagne</description>
         <Point>
            <coordinates>3.81946,45.22012</coordinates>
         </Point>
      </Placemark>
      <Placemark>
         <name>Bellevue</name>
         <description>Bellevue</description>
         <Point>
            <coordinates>-3.81667,48.58333</coordinates>
         </Point>
      </Placemark>
      <Placemark>
         <name>Saint-Gilles-les-Bois</name>
         <description>Saint-Gilles-les-Bois</description>
         <Point>
            <coordinates>-3.10355,48.65167</coordinates>
         </Point>
      </Placemark>
      <Placemark>
         <name>Saint-Amour-Bellevue</name>
         <description>Saint-Amour-Bellevue</description>
         <Point>
            <coordinates>4.7422,46.24555</coordinates>
         </Point>
      </Placemark>
      <Placemark>
         <name>Saint-Ferréol-de-Comminges</name>
         <description>Saint-Ferréol-de-Comminges</description>
         <Point>
            <coordinates>0.73333,43.33333</coordinates>
         </Point>
      </Placemark>
      <Placemark>
         <name>Bellevue</name>
         <description>Bellevue</description>
         <Point>
            <coordinates>-1.14944,46.14019</coordinates>
         </Point>
      </Placemark>
      <Placemark>
         <name>Bellevue</name>
         <description>Bellevue</description>
         <Point>
            <coordinates>-1.94702,47.25377</coordinates>
         </Point>
      </Placemark>
      <Placemark>
         <name>Bellevue</name>
         <description>Bellevue</description>
         <Point>
            <coordinates>2.22622,48.82114</coordinates>
         </Point>
      </Placemark>
      <Placemark>
         <name>Bellevue</name>
         <description>Bellevue</description>
         <Point>
            <coordinates>3.1398,48.72953</coordinates>
         </Point>
      </Placemark>
      <Placemark>
         <name>Bellevue</name>
         <description>Bellevue</description>
         <Point>
            <coordinates>-1.43448,48.1746</coordinates>
         </Point>
      </Placemark>
      <Placemark>
         <name>Bellevue</name>
         <description>Bellevue</description>
         <Point>
            <coordinates>2.68333,47.55</coordinates>
         </Point>
      </Placemark>
      <Placemark>
         <name>Bellevue</name>
         <description>Bellevue</description>
         <Point>
            <coordinates>2.56762,47.10782</coordinates>
         </Point>
      </Placemark>
      <Placemark>
         <name>Bellevue</name>
         <description>Bellevue</description>
         <Point>
            <coordinates>1.16667,45.88333</coordinates>
         </Point>
      </Placemark>
      <Placemark>
         <name>Bellevue</name>
         <description>Bellevue</description>
         <Point>
            <coordinates>-4.54268,48.27257</coordinates>
         </Point>
      </Placemark>
      <Placemark>
         <name>Saint-Paul-d’Izeaux</name>
         <description>Saint-Paul-d’Izeaux</description>
         <Point>
            <coordinates>5.43049,45.31705</coordinates>
         </Point>
      </Placemark>
      <Placemark>
         <name>Saint-Nicolas-de-Brem</name>
         <description>Saint-Nicolas-de-Brem</description>
         <Point>
            <coordinates>-1.83892,46.60947</coordinates>
         </Point>
      </Placemark>
      <Placemark>
         <name>Bellevue</name>
         <description>Bellevue</description>
         <Point>
            <coordinates>-1.31667,46.18333</coordinates>
         </Point>
      </Placemark>
      <Placemark>
         <name>Bellevue</name>
         <description>Bellevue</description>
         <Point>
            <coordinates>-4.50967,48.40508</coordinates>
         </Point>
      </Placemark>
      <Placemark>
         <name>Bellevue</name>
         <description>Bellevue</description>
         <Point>
            <coordinates>5.97824,45.68583</coordinates>
         </Point>
      </Placemark>
      <Placemark>
         <name>Bellevue</name>
         <description>Bellevue</description>
         <Point>
            <coordinates>6.89687,49.19438</coordinates>
         </Point>
      </Placemark>
      <Placemark>
         <name>Bellevue</name>
         <description>Bellevue</description>
         <Point>
            <coordinates>5.37181,43.2963</coordinates>
         </Point>
      </Placemark>
      <Placemark>
         <name>Mont Blanc</name>
         <description>Mont Blanc</description>
         <Point>
            <coordinates>6.864,45.833</coordinates>
         </Point>
      </Placemark>
      <Placemark>
         <name>Mont Blanc</name>
         <description>Mont Blanc</description>
         <Point>
            <coordinates>6.91667,45.91667</coordinates>
         </Point>
      </Placemark>
      <Placemark>
         <name>Saint-Just-Malmont</name>
         <description>Saint-Just-Malmont</description>
         <Point>
            <coordinates>4.31335,45.33973</coordinates>
         </Point>
      </Placemark>
      <Placemark>
         <name>Huby-Saint-Leu</name>
         <description>Huby-Saint-Leu</description>
         <Point>
            <coordinates>2.03757,50.38199</coordinates>
         </Point>
      </Placemark>
      <Placemark>
         <name>Petit Mont Blanc</name>
         <description>Petit Mont Blanc</description>
         <Point>
            <coordinates>6.68551,45.35601</coordinates>
         </Point>
      </Placemark>
      <Placemark>
         <name>Paris 02 Ancien - Quartier Chaussée-d'Antin</name>
         <description>Paris 02 Ancien - Quartier Chaussée-d'Antin</description>
         <Point>
            <coordinates>2.33646,48.87615</coordinates>
         </Point>
      </Placemark>
      <Placemark>
         <name>Daix</name>
         <description>Daix</description>
         <Point>
            <coordinates>4.99889,47.35194</coordinates>
         </Point>
      </Placemark>
      <Placemark>
         <name>Laz</name>
         <description>Laz</description>
         <Point>
            <coordinates>-3.83528,48.1375</coordinates>
         </Point>
      </Placemark>
      <Placemark>
         <name>Tricot</name>
         <description>Tricot</description>
         <Point>
            <coordinates>2.58789,49.5608</coordinates>
         </Point>
      </Placemark>
      <Placemark>
         <name>Tricot</name>
         <description>Tricot</description>
         <Point>
            <coordinates>2.58889,49.56111</coordinates>
         </Point>
      </Placemark>
      <Placemark>
         <name>Heugnes</name>
         <description>Heugnes</description>
         <Point>
            <coordinates>1.4,47</coordinates>
         </Point>
      </Placemark>
      <Placemark>
         <name>Aigne</name>
         <description>Aigne</description>
         <Point>
            <coordinates>2.79757,43.33282</coordinates>
         </Point>
      </Placemark>
      <Placemark>
         <name>Esnes</name>
         <description>Esnes</description>
         <Point>
            <coordinates>3.31139,50.10139</coordinates>
         </Point>
      </Placemark>
      <Placemark>
         <name>Haisnes</name>
         <description>Haisnes</description>
         <Point>
            <coordinates>2.80167,50.50806</coordinates>
         </Point>
      </Placemark>
      <Placemark>
         <name>Aignes</name>
         <description>Aignes</description>
         <Point>
            <coordinates>1.58861,43.32028</coordinates>
         </Point>
      </Placemark>
      <Placemark>
         <name>Aisne</name>
         <description>Aisne</description>
         <Point>
            <coordinates>2.84688,49.43413</coordinates>
         </Point>
      </Placemark>
      <Placemark>
         <name>Eyne</name>
         <description>Eyne</description>
         <Point>
            <coordinates>2.0825,42.47361</coordinates>
         </Point>
      </Placemark>
      <Placemark>
         <name>Mont Truc</name>
         <description>Mont Truc</description>
         <Point>
            <coordinates>6.75018,45.83984</coordinates>
         </Point>
      </Placemark>
      <Placemark>
         <name>Hyet</name>
         <description>Hyet</description>
         <Point>
            <coordinates>6.095,47.47417</coordinates>
         </Point>
      </Placemark>
      <Placemark>
         <name>Retiers</name>
         <description>Retiers</description>
         <Point>
            <coordinates>-1.37967,47.91392</coordinates>
         </Point>
      </Placemark>
      <Placemark>
         <name>Traversères</name>
         <description>Traversères</description>
         <Point>
            <coordinates>0.65028,43.53556</coordinates>
         </Point>
      </Placemark>
      <Placemark>
         <name>Eaunes</name>
         <description>Eaunes</description>
         <Point>
            <coordinates>1.35397,43.42079</coordinates>
         </Point>
      </Placemark>
      <Placemark>
         <name>Ognes</name>
         <description>Ognes</description>
         <Point>
            <coordinates>3.1949,49.6107</coordinates>
         </Point>
      </Placemark>
      <Placemark>
         <name>Augne</name>
         <description>Augne</description>
         <Point>
            <coordinates>1.705,45.78361</coordinates>
         </Point>
      </Placemark>
      <Placemark>
         <name>Homps</name>
         <description>Homps</description>
         <Point>
            <coordinates>2.72111,43.2675</coordinates>
         </Point>
      </Placemark>
      <Placemark>
         <name>Omps</name>
         <description>Omps</description>
         <Point>
            <coordinates>2.2769,44.8776</coordinates>
         </Point>
      </Placemark>
      <Placemark>
         <name>Aulne</name>
         <description>Aulne</description>
         <Point>
            <coordinates>-4.2645,48.28239</coordinates>
         </Point>
      </Placemark>
      <Placemark>
         <name>Eaunes</name>
         <description>Eaunes</description>
         <Point>
            <coordinates>1.35397,43.42079</coordinates>
         </Point>
      </Placemark>
      <Placemark>
         <name>Ognes</name>
         <description>Ognes</description>
         <Point>
            <coordinates>3.1949,49.6107</coordinates>
         </Point>
      </Placemark>
      <Placemark>
         <name>Augne</name>
         <description>Augne</description>
         <Point>
            <coordinates>1.705,45.78361</coordinates>
         </Point>
      </Placemark>
      <Placemark>
         <name>Homps</name>
         <description>Homps</description>
         <Point>
            <coordinates>2.72111,43.2675</coordinates>
         </Point>
      </Placemark>
      <Placemark>
         <name>Omps</name>
         <description>Omps</description>
         <Point>
            <coordinates>2.2769,44.8776</coordinates>
         </Point>
      </Placemark>
      <Placemark>
         <name>Aulne</name>
         <description>Aulne</description>
         <Point>
            <coordinates>-4.2645,48.28239</coordinates>
         </Point>
      </Placemark>
      <Placemark>
         <name>Eaunes</name>
         <description>Eaunes</description>
         <Point>
            <coordinates>1.35397,43.42079</coordinates>
         </Point>
      </Placemark>
      <Placemark>
         <name>Ognes</name>
         <description>Ognes</description>
         <Point>
            <coordinates>3.1949,49.6107</coordinates>
         </Point>
      </Placemark>
      <Placemark>
         <name>Augne</name>
         <description>Augne</description>
         <Point>
            <coordinates>1.705,45.78361</coordinates>
         </Point>
      </Placemark>
      <Placemark>
         <name>Homps</name>
         <description>Homps</description>
         <Point>
            <coordinates>2.72111,43.2675</coordinates>
         </Point>
      </Placemark>
      <Placemark>
         <name>Omps</name>
         <description>Omps</description>
         <Point>
            <coordinates>2.2769,44.8776</coordinates>
         </Point>
      </Placemark>
      <Placemark>
         <name>Aulne</name>
         <description>Aulne</description>
         <Point>
            <coordinates>-4.2645,48.28239</coordinates>
         </Point>
      </Placemark>
   </Document>
</kml>
