<?xml version="1.0" encoding="UTF-8"?>
<kml xmlns="http://earth.google.com/kml/2.0"
     xmlns:p="urn:ns:TeiSpe"
     xmlns:sch="urn:ns:sch"
     xmlns:T="urn:ns:Tei"
     version="1.1"
     creator="Guillaume Bolzonella">
   <metadata>
      <name>Transformation en fichier KML pour viasualisation avec Google earth</name>
      <desc>Livrable 4 partie 4</desc>
   </metadata>
   <Document>
      <Placemark>
         <name>Hennebont</name>
         <description>Hennebont</description>
         <Point>
            <coordinates>-3.27337,47.80512</coordinates>
         </Point>
      </Placemark>
      <Placemark>
         <name>Hennebont</name>
         <description>Hennebont</description>
         <Point>
            <coordinates>-3.27889,47.80417</coordinates>
         </Point>
      </Placemark>
      <Placemark>
         <name>Blavet</name>
         <description>Blavet</description>
         <Point>
            <coordinates>-3.34335,47.7377</coordinates>
         </Point>
      </Placemark>
      <Placemark>
         <name>Blavet</name>
         <description>Blavet</description>
         <Point>
            <coordinates>-3.17852,48.23268</coordinates>
         </Point>
      </Placemark>
      <Placemark>
         <name>Port-Louis</name>
         <description>Port-Louis</description>
         <Point>
            <coordinates>-3.35484,47.70704</coordinates>
         </Point>
      </Placemark>
      <Placemark>
         <name>Port-Louis</name>
         <description>Port-Louis</description>
         <Point>
            <coordinates>-3.3526,47.7063</coordinates>
         </Point>
      </Placemark>
      <Placemark>
         <name>Blavet</name>
         <description>Blavet</description>
         <Point>
            <coordinates>-3.34335,47.7377</coordinates>
         </Point>
      </Placemark>
      <Placemark>
         <name>Blavet</name>
         <description>Blavet</description>
         <Point>
            <coordinates>-3.17852,48.23268</coordinates>
         </Point>
      </Placemark>
      <Placemark>
         <name>Traversères</name>
         <description>Traversères</description>
         <Point>
            <coordinates>0.65028,43.53556</coordinates>
         </Point>
      </Placemark>
      <Placemark>
         <name>Celles</name>
         <description>Celles</description>
         <Point>
            <coordinates>0.41222,45.29694</coordinates>
         </Point>
      </Placemark>
      <Placemark>
         <name>Celles-sur-Durolle</name>
         <description>Celles-sur-Durolle</description>
         <Point>
            <coordinates>3.63528,45.85833</coordinates>
         </Point>
      </Placemark>
      <Placemark>
         <name>Saint-Antoine</name>
         <description>Saint-Antoine</description>
         <Point>
            <coordinates>0.84028,44.03578</coordinates>
         </Point>
      </Placemark>
      <Placemark>
         <name>Saint-Antoine</name>
         <description>Saint-Antoine</description>
         <Point>
            <coordinates>6.3341,46.77642</coordinates>
         </Point>
      </Placemark>
      <Placemark>
         <name>Saint-Antoine</name>
         <description>Saint-Antoine</description>
         <Point>
            <coordinates>2.33702,44.75048</coordinates>
         </Point>
      </Placemark>
      <Placemark>
         <name>Saint-Antoine</name>
         <description>Saint-Antoine</description>
         <Point>
            <coordinates>-0.42285,45.01548</coordinates>
         </Point>
      </Placemark>
      <Placemark>
         <name>Saint-Antoine</name>
         <description>Saint-Antoine</description>
         <Point>
            <coordinates>-0.42278,45.01611</coordinates>
         </Point>
      </Placemark>
      <Placemark>
         <name>Saint-Antoine-du-Rocher</name>
         <description>Saint-Antoine-du-Rocher</description>
         <Point>
            <coordinates>0.62997,47.49677</coordinates>
         </Point>
      </Placemark>
      <Placemark>
         <name>Saint-Antoine-de-Breuilh</name>
         <description>Saint-Antoine-de-Breuilh</description>
         <Point>
            <coordinates>0.16667,44.83333</coordinates>
         </Point>
      </Placemark>
      <Placemark>
         <name>Saint-Antoine</name>
         <description>Saint-Antoine</description>
         <Point>
            <coordinates>2.3375,44.75028</coordinates>
         </Point>
      </Placemark>
      <Placemark>
         <name>Saint-Antoine</name>
         <description>Saint-Antoine</description>
         <Point>
            <coordinates>7.41174,43.72619</coordinates>
         </Point>
      </Placemark>
      <Placemark>
         <name>Saint-Antoine</name>
         <description>Saint-Antoine</description>
         <Point>
            <coordinates>0.8767,49.58603</coordinates>
         </Point>
      </Placemark>
      <Placemark>
         <name>Saint-Antoine</name>
         <description>Saint-Antoine</description>
         <Point>
            <coordinates>-3.81667,48.63333</coordinates>
         </Point>
      </Placemark>
      <Placemark>
         <name>Saint-Antoine</name>
         <description>Saint-Antoine</description>
         <Point>
            <coordinates>-4.55,48.6</coordinates>
         </Point>
      </Placemark>
      <Placemark>
         <name>Saint-Antoine</name>
         <description>Saint-Antoine</description>
         <Point>
            <coordinates>3.15715,46.96552</coordinates>
         </Point>
      </Placemark>
      <Placemark>
         <name>Saint-Antoine</name>
         <description>Saint-Antoine</description>
         <Point>
            <coordinates>2.68533,46.95764</coordinates>
         </Point>
      </Placemark>
      <Placemark>
         <name>Saint-Antoine</name>
         <description>Saint-Antoine</description>
         <Point>
            <coordinates>6.48847,44.86775</coordinates>
         </Point>
      </Placemark>
      <Placemark>
         <name>Saint-Antoine</name>
         <description>Saint-Antoine</description>
         <Point>
            <coordinates>5.35888,43.37087</coordinates>
         </Point>
      </Placemark>
      <Placemark>
         <name>Saint-Antoine-sur-l’Isle</name>
         <description>Saint-Antoine-sur-l’Isle</description>
         <Point>
            <coordinates>0.05,45.03333</coordinates>
         </Point>
      </Placemark>
      <Placemark>
         <name>Saint-Antoine-de-Ficalba</name>
         <description>Saint-Antoine-de-Ficalba</description>
         <Point>
            <coordinates>0.71821,44.33214</coordinates>
         </Point>
      </Placemark>
      <Placemark>
         <name>Saint-Antoine-la-Forêt</name>
         <description>Saint-Antoine-la-Forêt</description>
         <Point>
            <coordinates>0.47428,49.53624</coordinates>
         </Point>
      </Placemark>
      <Placemark>
         <name>Saint-Antoine-du-Queyret</name>
         <description>Saint-Antoine-du-Queyret</description>
         <Point>
            <coordinates>0.00996,44.7637</coordinates>
         </Point>
      </Placemark>
      <Placemark>
         <name>Saint-Antoine-d’Auberoche</name>
         <description>Saint-Antoine-d’Auberoche</description>
         <Point>
            <coordinates>0.94399,45.1419</coordinates>
         </Point>
      </Placemark>
      <Placemark>
         <name>Saint-Antoine-Cumond</name>
         <description>Saint-Antoine-Cumond</description>
         <Point>
            <coordinates>0.2,45.26667</coordinates>
         </Point>
      </Placemark>
      <Placemark>
         <name>Saint-Antoine</name>
         <description>Saint-Antoine</description>
         <Point>
            <coordinates>9.44609,42.69605</coordinates>
         </Point>
      </Placemark>
      <Placemark>
         <name>Saint-Antoine</name>
         <description>Saint-Antoine</description>
         <Point>
            <coordinates>6.33778,46.77694</coordinates>
         </Point>
      </Placemark>
      <Placemark>
         <name>Sant’Antonio</name>
         <description>Sant’Antonio</description>
         <Point>
            <coordinates>9.36307,42.08174</coordinates>
         </Point>
      </Placemark>
      <Placemark>
         <name>Saint Antoine</name>
         <description>Saint Antoine</description>
         <Point>
            <coordinates>2.37391,48.85184</coordinates>
         </Point>
      </Placemark>
      <Placemark>
         <name>Saint-Antoine</name>
         <description>Saint-Antoine</description>
         <Point>
            <coordinates>0.84028,44.03639</coordinates>
         </Point>
      </Placemark>
      <Placemark>
         <name>Saint-Antoine</name>
         <description>Saint-Antoine</description>
         <Point>
            <coordinates>3.72798,49.19511</coordinates>
         </Point>
      </Placemark>
      <Placemark>
         <name>Saint-Gilles</name>
         <description>Saint-Gilles</description>
         <Point>
            <coordinates>-1.82477,48.15381</coordinates>
         </Point>
      </Placemark>
      <Placemark>
         <name>Saint-Gilles</name>
         <description>Saint-Gilles</description>
         <Point>
            <coordinates>4.43024,43.67656</coordinates>
         </Point>
      </Placemark>
      <Placemark>
         <name>Saint-Gilles-Croix-de-Vie</name>
         <description>Saint-Gilles-Croix-de-Vie</description>
         <Point>
            <coordinates>-1.94561,46.69761</coordinates>
         </Point>
      </Placemark>
      <Placemark>
         <name>Saint-Gilles</name>
         <description>Saint-Gilles</description>
         <Point>
            <coordinates>3.67679,49.28036</coordinates>
         </Point>
      </Placemark>
      <Placemark>
         <name>Saint-Gilles</name>
         <description>Saint-Gilles</description>
         <Point>
            <coordinates>-1.1769,49.10464</coordinates>
         </Point>
      </Placemark>
      <Placemark>
         <name>Saint-Gilles</name>
         <description>Saint-Gilles</description>
         <Point>
            <coordinates>1.4582,46.47924</coordinates>
         </Point>
      </Placemark>
      <Placemark>
         <name>Saint-Gilles</name>
         <description>Saint-Gilles</description>
         <Point>
            <coordinates>4.66357,46.87786</coordinates>
         </Point>
      </Placemark>
      <Placemark>
         <name>Saint-Gilles-de-la-Neuville</name>
         <description>Saint-Gilles-de-la-Neuville</description>
         <Point>
            <coordinates>0.37543,49.57494</coordinates>
         </Point>
      </Placemark>
      <Placemark>
         <name>Saint-Gilles</name>
         <description>Saint-Gilles</description>
         <Point>
            <coordinates>3.67583,49.28</coordinates>
         </Point>
      </Placemark>
      <Placemark>
         <name>Saint-Gilles</name>
         <description>Saint-Gilles</description>
         <Point>
            <coordinates>4.66694,46.87583</coordinates>
         </Point>
      </Placemark>
      <Placemark>
         <name>Saint-Gilles-des-Marais</name>
         <description>Saint-Gilles-des-Marais</description>
         <Point>
            <coordinates>-0.69388,48.58287</coordinates>
         </Point>
      </Placemark>
      <Placemark>
         <name>Saint-Gilles</name>
         <description>Saint-Gilles</description>
         <Point>
            <coordinates>-3.24323,47.81128</coordinates>
         </Point>
      </Placemark>
      <Placemark>
         <name>Saint-Gilles</name>
         <description>Saint-Gilles</description>
         <Point>
            <coordinates>-1.02372,47.7656</coordinates>
         </Point>
      </Placemark>
      <Placemark>
         <name>Saint-Gilles</name>
         <description>Saint-Gilles</description>
         <Point>
            <coordinates>0.42526,47.12336</coordinates>
         </Point>
      </Placemark>
      <Placemark>
         <name>Saint-Gilles-Pligeaux</name>
         <description>Saint-Gilles-Pligeaux</description>
         <Point>
            <coordinates>-3.09549,48.37934</coordinates>
         </Point>
      </Placemark>
      <Placemark>
         <name>Saint-Gilles-les-Bois</name>
         <description>Saint-Gilles-les-Bois</description>
         <Point>
            <coordinates>-3.10355,48.65167</coordinates>
         </Point>
      </Placemark>
      <Placemark>
         <name>Saint-Gilles-du-Mené</name>
         <description>Saint-Gilles-du-Mené</description>
         <Point>
            <coordinates>-2.54742,48.24784</coordinates>
         </Point>
      </Placemark>
      <Placemark>
         <name>Saint-Gilles-les-Forêts</name>
         <description>Saint-Gilles-les-Forêts</description>
         <Point>
            <coordinates>1.66372,45.62884</coordinates>
         </Point>
      </Placemark>
      <Placemark>
         <name>Saint-Gilles-de-Crétot</name>
         <description>Saint-Gilles-de-Crétot</description>
         <Point>
            <coordinates>0.64433,49.55824</coordinates>
         </Point>
      </Placemark>
      <Placemark>
         <name>Saint-Gilles-Vieux-Marché</name>
         <description>Saint-Gilles-Vieux-Marché</description>
         <Point>
            <coordinates>-2.96667,48.25</coordinates>
         </Point>
      </Placemark>
      <Placemark>
         <name>Saint-Gilles</name>
         <description>Saint-Gilles</description>
         <Point>
            <coordinates>-1.17556,49.10472</coordinates>
         </Point>
      </Placemark>
      <Placemark>
         <name>Saint-Gilles</name>
         <description>Saint-Gilles</description>
         <Point>
            <coordinates>1.4453,46.4949</coordinates>
         </Point>
      </Placemark>
      <Placemark>
         <name>Saint-Gilles</name>
         <description>Saint-Gilles</description>
         <Point>
            <coordinates>-1.82611,48.15361</coordinates>
         </Point>
      </Placemark>
      <Placemark>
         <name>Saint-Gilles</name>
         <description>Saint-Gilles</description>
         <Point>
            <coordinates>4.43111,43.67778</coordinates>
         </Point>
      </Placemark>
      <Placemark>
         <name>Traversères</name>
         <description>Traversères</description>
         <Point>
            <coordinates>0.65028,43.53556</coordinates>
         </Point>
      </Placemark>
      <Placemark>
         <name>Saint-Gilles</name>
         <description>Saint-Gilles</description>
         <Point>
            <coordinates>-1.82477,48.15381</coordinates>
         </Point>
      </Placemark>
      <Placemark>
         <name>Saint-Gilles</name>
         <description>Saint-Gilles</description>
         <Point>
            <coordinates>4.43024,43.67656</coordinates>
         </Point>
      </Placemark>
      <Placemark>
         <name>Saint-Gilles-Croix-de-Vie</name>
         <description>Saint-Gilles-Croix-de-Vie</description>
         <Point>
            <coordinates>-1.94561,46.69761</coordinates>
         </Point>
      </Placemark>
      <Placemark>
         <name>Saint-Gilles</name>
         <description>Saint-Gilles</description>
         <Point>
            <coordinates>3.67679,49.28036</coordinates>
         </Point>
      </Placemark>
      <Placemark>
         <name>Saint-Gilles</name>
         <description>Saint-Gilles</description>
         <Point>
            <coordinates>-1.1769,49.10464</coordinates>
         </Point>
      </Placemark>
      <Placemark>
         <name>Saint-Gilles</name>
         <description>Saint-Gilles</description>
         <Point>
            <coordinates>1.4582,46.47924</coordinates>
         </Point>
      </Placemark>
      <Placemark>
         <name>Saint-Gilles</name>
         <description>Saint-Gilles</description>
         <Point>
            <coordinates>4.66357,46.87786</coordinates>
         </Point>
      </Placemark>
      <Placemark>
         <name>Saint-Gilles-de-la-Neuville</name>
         <description>Saint-Gilles-de-la-Neuville</description>
         <Point>
            <coordinates>0.37543,49.57494</coordinates>
         </Point>
      </Placemark>
      <Placemark>
         <name>Saint-Gilles</name>
         <description>Saint-Gilles</description>
         <Point>
            <coordinates>3.67583,49.28</coordinates>
         </Point>
      </Placemark>
      <Placemark>
         <name>Saint-Gilles</name>
         <description>Saint-Gilles</description>
         <Point>
            <coordinates>4.66694,46.87583</coordinates>
         </Point>
      </Placemark>
      <Placemark>
         <name>Saint-Gilles-des-Marais</name>
         <description>Saint-Gilles-des-Marais</description>
         <Point>
            <coordinates>-0.69388,48.58287</coordinates>
         </Point>
      </Placemark>
      <Placemark>
         <name>Saint-Gilles</name>
         <description>Saint-Gilles</description>
         <Point>
            <coordinates>-3.24323,47.81128</coordinates>
         </Point>
      </Placemark>
      <Placemark>
         <name>Saint-Gilles</name>
         <description>Saint-Gilles</description>
         <Point>
            <coordinates>-1.02372,47.7656</coordinates>
         </Point>
      </Placemark>
      <Placemark>
         <name>Saint-Gilles</name>
         <description>Saint-Gilles</description>
         <Point>
            <coordinates>0.42526,47.12336</coordinates>
         </Point>
      </Placemark>
      <Placemark>
         <name>Saint-Gilles-Pligeaux</name>
         <description>Saint-Gilles-Pligeaux</description>
         <Point>
            <coordinates>-3.09549,48.37934</coordinates>
         </Point>
      </Placemark>
      <Placemark>
         <name>Saint-Gilles-les-Bois</name>
         <description>Saint-Gilles-les-Bois</description>
         <Point>
            <coordinates>-3.10355,48.65167</coordinates>
         </Point>
      </Placemark>
      <Placemark>
         <name>Saint-Gilles-du-Mené</name>
         <description>Saint-Gilles-du-Mené</description>
         <Point>
            <coordinates>-2.54742,48.24784</coordinates>
         </Point>
      </Placemark>
      <Placemark>
         <name>Saint-Gilles-les-Forêts</name>
         <description>Saint-Gilles-les-Forêts</description>
         <Point>
            <coordinates>1.66372,45.62884</coordinates>
         </Point>
      </Placemark>
      <Placemark>
         <name>Saint-Gilles-de-Crétot</name>
         <description>Saint-Gilles-de-Crétot</description>
         <Point>
            <coordinates>0.64433,49.55824</coordinates>
         </Point>
      </Placemark>
      <Placemark>
         <name>Saint-Gilles-Vieux-Marché</name>
         <description>Saint-Gilles-Vieux-Marché</description>
         <Point>
            <coordinates>-2.96667,48.25</coordinates>
         </Point>
      </Placemark>
      <Placemark>
         <name>Saint-Gilles</name>
         <description>Saint-Gilles</description>
         <Point>
            <coordinates>-1.17556,49.10472</coordinates>
         </Point>
      </Placemark>
      <Placemark>
         <name>Saint-Gilles</name>
         <description>Saint-Gilles</description>
         <Point>
            <coordinates>1.4453,46.4949</coordinates>
         </Point>
      </Placemark>
      <Placemark>
         <name>Saint-Gilles</name>
         <description>Saint-Gilles</description>
         <Point>
            <coordinates>-1.82611,48.15361</coordinates>
         </Point>
      </Placemark>
      <Placemark>
         <name>Saint-Gilles</name>
         <description>Saint-Gilles</description>
         <Point>
            <coordinates>4.43111,43.67778</coordinates>
         </Point>
      </Placemark>
      <Placemark>
         <name>Saint-Germain</name>
         <description>Saint-Germain</description>
         <Point>
            <coordinates>6.53117,47.72496</coordinates>
         </Point>
      </Placemark>
      <Placemark>
         <name>Saint-Germain</name>
         <description>Saint-Germain</description>
         <Point>
            <coordinates>4.03264,48.25736</coordinates>
         </Point>
      </Placemark>
      <Placemark>
         <name>Saint-Germain-en-Laye</name>
         <description>Saint-Germain-en-Laye</description>
         <Point>
            <coordinates>2.08333,48.9</coordinates>
         </Point>
      </Placemark>
      <Placemark>
         <name>Saint-Germain</name>
         <description>Saint-Germain</description>
         <Point>
            <coordinates>6.33917,48.43195</coordinates>
         </Point>
      </Placemark>
      <Placemark>
         <name>Saint-Germain</name>
         <description>Saint-Germain</description>
         <Point>
            <coordinates>0.88251,46.56649</coordinates>
         </Point>
      </Placemark>
      <Placemark>
         <name>Saint-Germain</name>
         <description>Saint-Germain</description>
         <Point>
            <coordinates>4.45029,44.55493</coordinates>
         </Point>
      </Placemark>
      <Placemark>
         <name>Saint-Germain</name>
         <description>Saint-Germain</description>
         <Point>
            <coordinates>4.7,47.5</coordinates>
         </Point>
      </Placemark>
      <Placemark>
         <name>Saint-Germain-sur-Morin</name>
         <description>Saint-Germain-sur-Morin</description>
         <Point>
            <coordinates>2.85127,48.88257</coordinates>
         </Point>
      </Placemark>
      <Placemark>
         <name>Saint-Germain-la-Blanche-Herbe</name>
         <description>Saint-Germain-la-Blanche-Herbe</description>
         <Point>
            <coordinates>-0.40426,49.18327</coordinates>
         </Point>
      </Placemark>
      <Placemark>
         <name>Saint-Germain-Lembron</name>
         <description>Saint-Germain-Lembron</description>
         <Point>
            <coordinates>3.2395,45.45798</coordinates>
         </Point>
      </Placemark>
      <Placemark>
         <name>Saint-Germain-en-Coglès</name>
         <description>Saint-Germain-en-Coglès</description>
         <Point>
            <coordinates>-1.26369,48.40531</coordinates>
         </Point>
      </Placemark>
      <Placemark>
         <name>Saint-Germain-du-Plain</name>
         <description>Saint-Germain-du-Plain</description>
         <Point>
            <coordinates>4.9851,46.69938</coordinates>
         </Point>
      </Placemark>
      <Placemark>
         <name>Saint-Germain-du-Corbéis</name>
         <description>Saint-Germain-du-Corbéis</description>
         <Point>
            <coordinates>0.06193,48.42215</coordinates>
         </Point>
      </Placemark>
      <Placemark>
         <name>Saint-Germain-des-Prés</name>
         <description>Saint-Germain-des-Prés</description>
         <Point>
            <coordinates>-0.83342,47.40998</coordinates>
         </Point>
      </Placemark>
      <Placemark>
         <name>Saint-Germain-de-Lusignan</name>
         <description>Saint-Germain-de-Lusignan</description>
         <Point>
            <coordinates>-0.46147,45.45011</coordinates>
         </Point>
      </Placemark>
      <Placemark>
         <name>Saint-Germain-sur-Ille</name>
         <description>Saint-Germain-sur-Ille</description>
         <Point>
            <coordinates>-1.65894,48.24905</coordinates>
         </Point>
      </Placemark>
      <Placemark>
         <name>Saint-Germain-Lespinasse</name>
         <description>Saint-Germain-Lespinasse</description>
         <Point>
            <coordinates>3.96204,46.10165</coordinates>
         </Point>
      </Placemark>
      <Placemark>
         <name>Saint-Germain-les-Belles</name>
         <description>Saint-Germain-les-Belles</description>
         <Point>
            <coordinates>1.4949,45.61356</coordinates>
         </Point>
      </Placemark>
      <Placemark>
         <name>Saint-Germain-Laprade</name>
         <description>Saint-Germain-Laprade</description>
         <Point>
            <coordinates>3.97004,45.03862</coordinates>
         </Point>
      </Placemark>
      <Placemark>
         <name>Saint-Germain-la-Chambotte</name>
         <description>Saint-Germain-la-Chambotte</description>
         <Point>
            <coordinates>5.88966,45.77952</coordinates>
         </Point>
      </Placemark>
      <Placemark>
         <name>Saint-Germain-du-Puch</name>
         <description>Saint-Germain-du-Puch</description>
         <Point>
            <coordinates>-0.31667,44.85</coordinates>
         </Point>
      </Placemark>
      <Placemark>
         <name>Saint-Germain-du-Pinel</name>
         <description>Saint-Germain-du-Pinel</description>
         <Point>
            <coordinates>-1.16683,48.01225</coordinates>
         </Point>
      </Placemark>
      <Placemark>
         <name>Saint-Germain-de-Marencennes</name>
         <description>Saint-Germain-de-Marencennes</description>
         <Point>
            <coordinates>-0.79133,46.07733</coordinates>
         </Point>
      </Placemark>
      <Placemark>
         <name>Saint-Germain-de-la-Grange</name>
         <description>Saint-Germain-de-la-Grange</description>
         <Point>
            <coordinates>1.89884,48.83436</coordinates>
         </Point>
      </Placemark>
      <Placemark>
         <name>Saint-Germain-sur-Sarthe</name>
         <description>Saint-Germain-sur-Sarthe</description>
         <Point>
            <coordinates>0.09557,48.28559</coordinates>
         </Point>
      </Placemark>
      <Placemark>
         <name>Saint-Germain-sur-Renon</name>
         <description>Saint-Germain-sur-Renon</description>
         <Point>
            <coordinates>5.05864,46.08095</coordinates>
         </Point>
      </Placemark>
      <Placemark>
         <name>Saint-Germain-sur-Eaulne</name>
         <description>Saint-Germain-sur-Eaulne</description>
         <Point>
            <coordinates>1.50676,49.76471</coordinates>
         </Point>
      </Placemark>
      <Placemark>
         <name>Saint-Germain-sur-Bresle</name>
         <description>Saint-Germain-sur-Bresle</description>
         <Point>
            <coordinates>1.73199,49.82979</coordinates>
         </Point>
      </Placemark>
      <Placemark>
         <name>Saint-Germain-le-Vasson</name>
         <description>Saint-Germain-le-Vasson</description>
         <Point>
            <coordinates>-0.30133,49.002</coordinates>
         </Point>
      </Placemark>
      <Placemark>
         <name>Saint-Germain-les-Paroisses</name>
         <description>Saint-Germain-les-Paroisses</description>
         <Point>
            <coordinates>5.61914,45.77364</coordinates>
         </Point>
      </Placemark>
      <Placemark>
         <name>Saint-Germain-le-Guillaume</name>
         <description>Saint-Germain-le-Guillaume</description>
         <Point>
            <coordinates>-0.82601,48.20608</coordinates>
         </Point>
      </Placemark>
      <Placemark>
         <name>Saint-Germain-le-Gaillard</name>
         <description>Saint-Germain-le-Gaillard</description>
         <Point>
            <coordinates>-1.78226,49.48595</coordinates>
         </Point>
      </Placemark>
      <Placemark>
         <name>Saint-Germain-le-Gaillard</name>
         <description>Saint-Germain-le-Gaillard</description>
         <Point>
            <coordinates>1.25945,48.42175</coordinates>
         </Point>
      </Placemark>
      <Placemark>
         <name>Saint-Germain-le-Fouilloux</name>
         <description>Saint-Germain-le-Fouilloux</description>
         <Point>
            <coordinates>-0.7914,48.13609</coordinates>
         </Point>
      </Placemark>
      <Placemark>
         <name>Saint-Germain-Lavolps</name>
         <description>Saint-Germain-Lavolps</description>
         <Point>
            <coordinates>2.21667,45.61667</coordinates>
         </Point>
      </Placemark>
      <Placemark>
         <name>Saint-Germain-la-Poterie</name>
         <description>Saint-Germain-la-Poterie</description>
         <Point>
            <coordinates>1.98285,49.44533</coordinates>
         </Point>
      </Placemark>
      <Placemark>
         <name>Saint-Germain-Langot</name>
         <description>Saint-Germain-Langot</description>
         <Point>
            <coordinates>-0.32363,48.92384</coordinates>
         </Point>
      </Placemark>
      <Placemark>
         <name>Saint-Germain-la-Montagne</name>
         <description>Saint-Germain-la-Montagne</description>
         <Point>
            <coordinates>4.37685,46.2026</coordinates>
         </Point>
      </Placemark>
      <Placemark>
         <name>Saint-Germain-la-Campagne</name>
         <description>Saint-Germain-la-Campagne</description>
         <Point>
            <coordinates>0.40579,49.04799</coordinates>
         </Point>
      </Placemark>
      <Placemark>
         <name>Saint-Germain-en-Brionnais</name>
         <description>Saint-Germain-en-Brionnais</description>
         <Point>
            <coordinates>4.26493,46.35434</coordinates>
         </Point>
      </Placemark>
      <Placemark>
         <name>Saint-Germain-du-Teil</name>
         <description>Saint-Germain-du-Teil</description>
         <Point>
            <coordinates>3.17253,44.47865</coordinates>
         </Point>
      </Placemark>
      <Placemark>
         <name>Saint-Germain-de-Varreville</name>
         <description>Saint-Germain-de-Varreville</description>
         <Point>
            <coordinates>-1.2575,49.43726</coordinates>
         </Point>
      </Placemark>
      <Placemark>
         <name>Saint-Germain-de-Tournebut</name>
         <description>Saint-Germain-de-Tournebut</description>
         <Point>
            <coordinates>-1.39478,49.53534</coordinates>
         </Point>
      </Placemark>
      <Placemark>
         <name>Saint-Germain-des-Grois</name>
         <description>Saint-Germain-des-Grois</description>
         <Point>
            <coordinates>0.82997,48.39855</coordinates>
         </Point>
      </Placemark>
      <Placemark>
         <name>Saint-Germain-des-Essourts</name>
         <description>Saint-Germain-des-Essourts</description>
         <Point>
            <coordinates>1.32098,49.53872</coordinates>
         </Point>
      </Placemark>
      <Placemark>
         <name>Saint-Germain-des-Angles</name>
         <description>Saint-Germain-des-Angles</description>
         <Point>
            <coordinates>1.14612,49.09156</coordinates>
         </Point>
      </Placemark>
      <Placemark>
         <name>Saint-Germain-de-Pasquier</name>
         <description>Saint-Germain-de-Pasquier</description>
         <Point>
            <coordinates>1,49.24605</coordinates>
         </Point>
      </Placemark>
      <Placemark>
         <name>Saint-Germain-de-Martigny</name>
         <description>Saint-Germain-de-Martigny</description>
         <Point>
            <coordinates>0.4647,48.58973</coordinates>
         </Point>
      </Placemark>
      <Placemark>
         <name>Saint-Germain-de-la-Coudre</name>
         <description>Saint-Germain-de-la-Coudre</description>
         <Point>
            <coordinates>0.60496,48.28096</coordinates>
         </Point>
      </Placemark>
      <Placemark>
         <name>Saint-Germain-de-Fresney</name>
         <description>Saint-Germain-de-Fresney</description>
         <Point>
            <coordinates>1.29182,48.96046</coordinates>
         </Point>
      </Placemark>
      <Placemark>
         <name>Saint-Germain-de-Clairefeuille</name>
         <description>Saint-Germain-de-Clairefeuille</description>
         <Point>
            <coordinates>0.23879,48.7128</coordinates>
         </Point>
      </Placemark>
      <Placemark>
         <name>Saint-Germain-Village</name>
         <description>Saint-Germain-Village</description>
         <Point>
            <coordinates>0.50331,49.34908</coordinates>
         </Point>
      </Placemark>
      <Placemark>
         <name>Saint-Germain-sur-Moine</name>
         <description>Saint-Germain-sur-Moine</description>
         <Point>
            <coordinates>-1.12223,47.11746</coordinates>
         </Point>
      </Placemark>
      <Placemark>
         <name>Saint-Germain-Nuelles</name>
         <description>Saint-Germain-Nuelles</description>
         <Point>
            <coordinates>4.61182,45.85242</coordinates>
         </Point>
      </Placemark>
      <Placemark>
         <name>Saint-Germain-sur-Avre</name>
         <description>Saint-Germain-sur-Avre</description>
         <Point>
            <coordinates>1.26776,48.76466</coordinates>
         </Point>
      </Placemark>
      <Placemark>
         <name>Saint-Germain-lès-Corbeil</name>
         <description>Saint-Germain-lès-Corbeil</description>
         <Point>
            <coordinates>2.48775,48.62211</coordinates>
         </Point>
      </Placemark>
      <Placemark>
         <name>Saint-Germain-lès-Arpajon</name>
         <description>Saint-Germain-lès-Arpajon</description>
         <Point>
            <coordinates>2.26481,48.59733</coordinates>
         </Point>
      </Placemark>
      <Placemark>
         <name>Saint-Germain-le-Rocheux</name>
         <description>Saint-Germain-le-Rocheux</description>
         <Point>
            <coordinates>4.66869,47.75131</coordinates>
         </Point>
      </Placemark>
      <Placemark>
         <name>Saint-Germain-en-Montagne</name>
         <description>Saint-Germain-en-Montagne</description>
         <Point>
            <coordinates>5.93921,46.7782</coordinates>
         </Point>
      </Placemark>
      <Placemark>
         <name>Saint-Germain-du-Salembre</name>
         <description>Saint-Germain-du-Salembre</description>
         <Point>
            <coordinates>0.45033,45.13827</coordinates>
         </Point>
      </Placemark>
      <Placemark>
         <name>Saint-Germain-du-Puy</name>
         <description>Saint-Germain-du-Puy</description>
         <Point>
            <coordinates>2.48333,47.1</coordinates>
         </Point>
      </Placemark>
      <Placemark>
         <name>Saint-Germain-du-Crioult</name>
         <description>Saint-Germain-du-Crioult</description>
         <Point>
            <coordinates>-0.6044,48.85642</coordinates>
         </Point>
      </Placemark>
      <Placemark>
         <name>Saint-Germain-du-Bois</name>
         <description>Saint-Germain-du-Bois</description>
         <Point>
            <coordinates>5.2453,46.75287</coordinates>
         </Point>
      </Placemark>
      <Placemark>
         <name>Saint-Germain-de-Vibrac</name>
         <description>Saint-Germain-de-Vibrac</description>
         <Point>
            <coordinates>-0.31667,45.43333</coordinates>
         </Point>
      </Placemark>
      <Placemark>
         <name>Saint-Germain-des-Vaux</name>
         <description>Saint-Germain-des-Vaux</description>
         <Point>
            <coordinates>-1.91976,49.71463</coordinates>
         </Point>
      </Placemark>
      <Placemark>
         <name>Saint-Germain-des-Fossés</name>
         <description>Saint-Germain-des-Fossés</description>
         <Point>
            <coordinates>3.43245,46.20211</coordinates>
         </Point>
      </Placemark>
      <Placemark>
         <name>Saint-Germain-de-Prinçay</name>
         <description>Saint-Germain-de-Prinçay</description>
         <Point>
            <coordinates>-1.02153,46.72107</coordinates>
         </Point>
      </Placemark>
      <Placemark>
         <name>Saint-Germain-de-Montbron</name>
         <description>Saint-Germain-de-Montbron</description>
         <Point>
            <coordinates>0.41987,45.62344</coordinates>
         </Point>
      </Placemark>
      <Placemark>
         <name>Saint-Germain-de-Confolens</name>
         <description>Saint-Germain-de-Confolens</description>
         <Point>
            <coordinates>0.68361,46.05362</coordinates>
         </Point>
      </Placemark>
      <Placemark>
         <name>Saint-Germain</name>
         <description>Saint-Germain</description>
         <Point>
            <coordinates>6.33889,48.43111</coordinates>
         </Point>
      </Placemark>
      <Placemark>
         <name>Saint-Germain-sur-Meuse</name>
         <description>Saint-Germain-sur-Meuse</description>
         <Point>
            <coordinates>5.69421,48.64942</coordinates>
         </Point>
      </Placemark>
      <Placemark>
         <name>Saint-Germain-sur-Ay</name>
         <description>Saint-Germain-sur-Ay</description>
         <Point>
            <coordinates>-1.59444,49.2351</coordinates>
         </Point>
      </Placemark>
      <Placemark>
         <name>Saint-Germain-l’Herm</name>
         <description>Saint-Germain-l’Herm</description>
         <Point>
            <coordinates>3.54082,45.45838</coordinates>
         </Point>
      </Placemark>
      <Placemark>
         <name>Saint-Germain-les-Vergnes</name>
         <description>Saint-Germain-les-Vergnes</description>
         <Point>
            <coordinates>1.63522,45.27422</coordinates>
         </Point>
      </Placemark>
      <Placemark>
         <name>Saint-Germain-la-Ville</name>
         <description>Saint-Germain-la-Ville</description>
         <Point>
            <coordinates>4.44752,48.88217</coordinates>
         </Point>
      </Placemark>
      <Placemark>
         <name>Saint-Germain-du-Seudre</name>
         <description>Saint-Germain-du-Seudre</description>
         <Point>
            <coordinates>-0.66768,45.5126</coordinates>
         </Point>
      </Placemark>
      <Placemark>
         <name>Saint-Germain-du-Bel-Air</name>
         <description>Saint-Germain-du-Bel-Air</description>
         <Point>
            <coordinates>1.44035,44.64685</coordinates>
         </Point>
      </Placemark>
      <Placemark>
         <name>Saint-Germain-des-Prés</name>
         <description>Saint-Germain-des-Prés</description>
         <Point>
            <coordinates>2.84846,47.95384</coordinates>
         </Point>
      </Placemark>
      <Placemark>
         <name>Saint-Germain-des-Bois</name>
         <description>Saint-Germain-des-Bois</description>
         <Point>
            <coordinates>2.44522,46.91238</coordinates>
         </Point>
      </Placemark>
      <Placemark>
         <name>Saint-Germain-de-Joux</name>
         <description>Saint-Germain-de-Joux</description>
         <Point>
            <coordinates>5.73795,46.179</coordinates>
         </Point>
      </Placemark>
      <Placemark>
         <name>Saint-Germain-Beaupré</name>
         <description>Saint-Germain-Beaupré</description>
         <Point>
            <coordinates>1.54553,46.30753</coordinates>
         </Point>
      </Placemark>
      <Placemark>
         <name>Saint-Germain-au-Mont-d’Or</name>
         <description>Saint-Germain-au-Mont-d’Or</description>
         <Point>
            <coordinates>4.80167,45.88037</coordinates>
         </Point>
      </Placemark>
      <Placemark>
         <name>Saint-Germain-de-Calberte</name>
         <description>Saint-Germain-de-Calberte</description>
         <Point>
            <coordinates>3.80937,44.21756</coordinates>
         </Point>
      </Placemark>
      <Placemark>
         <name>Saint-Germain</name>
         <description>Saint-Germain</description>
         <Point>
            <coordinates>3.62486,49.92411</coordinates>
         </Point>
      </Placemark>
      <Placemark>
         <name>Saint-Germain</name>
         <description>Saint-Germain</description>
         <Point>
            <coordinates>2.19772,49.41907</coordinates>
         </Point>
      </Placemark>
      <Placemark>
         <name>Saint-Germain</name>
         <description>Saint-Germain</description>
         <Point>
            <coordinates>1.57338,49.36511</coordinates>
         </Point>
      </Placemark>
      <Placemark>
         <name>Saint-Germain</name>
         <description>Saint-Germain</description>
         <Point>
            <coordinates>-2.30236,48.61781</coordinates>
         </Point>
      </Placemark>
      <Placemark>
         <name>Saint-Germain</name>
         <description>Saint-Germain</description>
         <Point>
            <coordinates>1.37532,48.22752</coordinates>
         </Point>
      </Placemark>
      <Placemark>
         <name>Saint-Germain</name>
         <description>Saint-Germain</description>
         <Point>
            <coordinates>-4.25,47.96667</coordinates>
         </Point>
      </Placemark>
      <Placemark>
         <name>Saint-Germain</name>
         <description>Saint-Germain</description>
         <Point>
            <coordinates>2.36552,47.76514</coordinates>
         </Point>
      </Placemark>
      <Placemark>
         <name>Saint-Germain</name>
         <description>Saint-Germain</description>
         <Point>
            <coordinates>-0.34778,47.70411</coordinates>
         </Point>
      </Placemark>
      <Placemark>
         <name>Saint-Germain</name>
         <description>Saint-Germain</description>
         <Point>
            <coordinates>1.07019,47.08276</coordinates>
         </Point>
      </Placemark>
      <Placemark>
         <name>Saint-Germain</name>
         <description>Saint-Germain</description>
         <Point>
            <coordinates>2.999,47.04807</coordinates>
         </Point>
      </Placemark>
      <Placemark>
         <name>Saint-Germain</name>
         <description>Saint-Germain</description>
         <Point>
            <coordinates>3.2919,46.40924</coordinates>
         </Point>
      </Placemark>
      <Placemark>
         <name>Saint-Germain</name>
         <description>Saint-Germain</description>
         <Point>
            <coordinates>5.20449,45.61526</coordinates>
         </Point>
      </Placemark>
      <Placemark>
         <name>Saint-Germain-de-Tallevende</name>
         <description>Saint-Germain-de-Tallevende</description>
         <Point>
            <coordinates>-0.9,48.8</coordinates>
         </Point>
      </Placemark>
      <Placemark>
         <name>Saint-Germain-sur-Vienne</name>
         <description>Saint-Germain-sur-Vienne</description>
         <Point>
            <coordinates>0.09813,47.19439</coordinates>
         </Point>
      </Placemark>
      <Placemark>
         <name>Saint-Germain-sur-Sèves</name>
         <description>Saint-Germain-sur-Sèves</description>
         <Point>
            <coordinates>-1.3694,49.22214</coordinates>
         </Point>
      </Placemark>
      <Placemark>
         <name>Saint-Germain-sur-Rhône</name>
         <description>Saint-Germain-sur-Rhône</description>
         <Point>
            <coordinates>5.81382,46.06653</coordinates>
         </Point>
      </Placemark>
      <Placemark>
         <name>Saint-Germain-sur-École</name>
         <description>Saint-Germain-sur-École</description>
         <Point>
            <coordinates>2.50793,48.47415</coordinates>
         </Point>
      </Placemark>
      <Placemark>
         <name>Traversères</name>
         <description>Traversères</description>
         <Point>
            <coordinates>0.65028,43.53556</coordinates>
         </Point>
      </Placemark>
      <Placemark>
         <name>Cette-Eygun</name>
         <description>Cette-Eygun</description>
         <Point>
            <coordinates>-0.58333,42.93333</coordinates>
         </Point>
      </Placemark>
      <Placemark>
         <name>Quélennec</name>
         <description>Quélennec</description>
         <Point>
            <coordinates>-4.05,48.36667</coordinates>
         </Point>
      </Placemark>
      <Placemark>
         <name>Lochrist</name>
         <description>Lochrist</description>
         <Point>
            <coordinates>-4.23533,48.63022</coordinates>
         </Point>
      </Placemark>
      <Placemark>
         <name>Lochrist</name>
         <description>Lochrist</description>
         <Point>
            <coordinates>-4.66117,48.49817</coordinates>
         </Point>
      </Placemark>
      <Placemark>
         <name>Lochrist</name>
         <description>Lochrist</description>
         <Point>
            <coordinates>-4.76189,48.34612</coordinates>
         </Point>
      </Placemark>
      <Placemark>
         <name>Lochrist</name>
         <description>Lochrist</description>
         <Point>
            <coordinates>-3.49108,48.34274</coordinates>
         </Point>
      </Placemark>
      <Placemark>
         <name>Lochrist</name>
         <description>Lochrist</description>
         <Point>
            <coordinates>-3.33099,48.07068</coordinates>
         </Point>
      </Placemark>
      <Placemark>
         <name>Lochrist</name>
         <description>Lochrist</description>
         <Point>
            <coordinates>-3.23835,47.96471</coordinates>
         </Point>
      </Placemark>
      <Placemark>
         <name>Lochrist</name>
         <description>Lochrist</description>
         <Point>
            <coordinates>-3.26418,47.82393</coordinates>
         </Point>
      </Placemark>
      <Placemark>
         <name>Lochrist</name>
         <description>Lochrist</description>
         <Point>
            <coordinates>-4.23533,48.63022</coordinates>
         </Point>
      </Placemark>
      <Placemark>
         <name>Lochrist</name>
         <description>Lochrist</description>
         <Point>
            <coordinates>-4.66117,48.49817</coordinates>
         </Point>
      </Placemark>
      <Placemark>
         <name>Lochrist</name>
         <description>Lochrist</description>
         <Point>
            <coordinates>-4.76189,48.34612</coordinates>
         </Point>
      </Placemark>
      <Placemark>
         <name>Lochrist</name>
         <description>Lochrist</description>
         <Point>
            <coordinates>-3.49108,48.34274</coordinates>
         </Point>
      </Placemark>
      <Placemark>
         <name>Lochrist</name>
         <description>Lochrist</description>
         <Point>
            <coordinates>-3.33099,48.07068</coordinates>
         </Point>
      </Placemark>
      <Placemark>
         <name>Lochrist</name>
         <description>Lochrist</description>
         <Point>
            <coordinates>-3.23835,47.96471</coordinates>
         </Point>
      </Placemark>
      <Placemark>
         <name>Lochrist</name>
         <description>Lochrist</description>
         <Point>
            <coordinates>-3.26418,47.82393</coordinates>
         </Point>
      </Placemark>
      <Placemark>
         <name>Blavet</name>
         <description>Blavet</description>
         <Point>
            <coordinates>-3.34335,47.7377</coordinates>
         </Point>
      </Placemark>
      <Placemark>
         <name>Blavet</name>
         <description>Blavet</description>
         <Point>
            <coordinates>-3.17852,48.23268</coordinates>
         </Point>
      </Placemark>
      <Placemark>
         <name>Blavet</name>
         <description>Blavet</description>
         <Point>
            <coordinates>-3.34335,47.7377</coordinates>
         </Point>
      </Placemark>
      <Placemark>
         <name>Blavet</name>
         <description>Blavet</description>
         <Point>
            <coordinates>-3.17852,48.23268</coordinates>
         </Point>
      </Placemark>
      <Placemark>
         <name>Heugnes</name>
         <description>Heugnes</description>
         <Point>
            <coordinates>1.4,47</coordinates>
         </Point>
      </Placemark>
      <Placemark>
         <name>Aigne</name>
         <description>Aigne</description>
         <Point>
            <coordinates>2.79757,43.33282</coordinates>
         </Point>
      </Placemark>
      <Placemark>
         <name>Esnes</name>
         <description>Esnes</description>
         <Point>
            <coordinates>3.31139,50.10139</coordinates>
         </Point>
      </Placemark>
      <Placemark>
         <name>Haisnes</name>
         <description>Haisnes</description>
         <Point>
            <coordinates>2.80167,50.50806</coordinates>
         </Point>
      </Placemark>
      <Placemark>
         <name>Aignes</name>
         <description>Aignes</description>
         <Point>
            <coordinates>1.58861,43.32028</coordinates>
         </Point>
      </Placemark>
      <Placemark>
         <name>Aisne</name>
         <description>Aisne</description>
         <Point>
            <coordinates>2.84688,49.43413</coordinates>
         </Point>
      </Placemark>
      <Placemark>
         <name>Eyne</name>
         <description>Eyne</description>
         <Point>
            <coordinates>2.0825,42.47361</coordinates>
         </Point>
      </Placemark>
      <Placemark>
         <name>Blavet</name>
         <description>Blavet</description>
         <Point>
            <coordinates>-3.34335,47.7377</coordinates>
         </Point>
      </Placemark>
      <Placemark>
         <name>Blavet</name>
         <description>Blavet</description>
         <Point>
            <coordinates>-3.17852,48.23268</coordinates>
         </Point>
      </Placemark>
      <Placemark>
         <name>Grand</name>
         <description>Grand</description>
         <Point>
            <coordinates>5.48701,48.38494</coordinates>
         </Point>
      </Placemark>
      <Placemark>
         <name>Grand</name>
         <description>Grand</description>
         <Point>
            <coordinates>5.48611,48.38556</coordinates>
         </Point>
      </Placemark>
      <Placemark>
         <name>grand</name>
         <description>grand</description>
         <Point>
            <coordinates>7.32522,48.40301</coordinates>
         </Point>
      </Placemark>
      <Placemark>
         <name>Hennebont</name>
         <description>Hennebont</description>
         <Point>
            <coordinates>-3.27337,47.80512</coordinates>
         </Point>
      </Placemark>
      <Placemark>
         <name>Hennebont</name>
         <description>Hennebont</description>
         <Point>
            <coordinates>-3.27889,47.80417</coordinates>
         </Point>
      </Placemark>
      <Placemark>
         <name>Seille</name>
         <description>Seille</description>
         <Point>
            <coordinates>6.18535,49.12566</coordinates>
         </Point>
      </Placemark>
      <Placemark>
         <name>Grand</name>
         <description>Grand</description>
         <Point>
            <coordinates>5.48701,48.38494</coordinates>
         </Point>
      </Placemark>
      <Placemark>
         <name>Grand</name>
         <description>Grand</description>
         <Point>
            <coordinates>5.48611,48.38556</coordinates>
         </Point>
      </Placemark>
      <Placemark>
         <name>grand</name>
         <description>grand</description>
         <Point>
            <coordinates>7.32522,48.40301</coordinates>
         </Point>
      </Placemark>
   </Document>
</kml>
