<?xml version="1.0" encoding="UTF-8"?>
<gpx xmlns:xsi="http://www.w3.org/2001/XMLSchema-instance"
     xmlns:p="urn:ns:TeiSpe"
     xmlns:sch="urn:ns:sch"
     xmlns:T="urn:ns:Tei"
     xmlns="http://www.topografix.com/GPX/1/1"
     version="1.1"
     creator="Guillaume Bolzonella"
     xsi:schemaLocation="http://www.topografix.com/GPX/1/1 http://www.topografix.com/GPX/1/1/gpx.xsd">
   <metadata>
      <name>Transformation en fichier GPX pour viasualisation avec Google Map</name>
      <desc>Livrable 4 partie 4</desc>
   </metadata>
   <wpt lat="45.57732" lon="5.97264">
      <desc>Leysse</desc>
   </wpt>
   <wpt lat="45.65" lon="5.86667">
      <desc>Leysse</desc>
   </wpt>
   <wpt lat="45.57732" lon="5.97264">
      <desc>Leysse</desc>
   </wpt>
   <wpt lat="45.65" lon="5.86667">
      <desc>Leysse</desc>
   </wpt>
   <wpt lat="45.57732" lon="5.97264">
      <desc>Leysse</desc>
   </wpt>
   <wpt lat="45.65" lon="5.86667">
      <desc>Leysse</desc>
   </wpt>
   <wpt lat="47.7625" lon="6.63279">
      <desc>Fresse</desc>
   </wpt>
   <wpt lat="47.7575" lon="6.65722">
      <desc>Fresse</desc>
   </wpt>
   <wpt lat="45.7007" lon="2.77847">
      <desc>Fresse</desc>
   </wpt>
   <wpt lat="47.87589" lon="6.78589">
      <desc>Fresse-sur-Moselle</desc>
   </wpt>
   <wpt lat="45.57732" lon="5.97264">
      <desc>Leysse</desc>
   </wpt>
   <wpt lat="45.65" lon="5.86667">
      <desc>Leysse</desc>
   </wpt>
   <wpt lat="43.87383" lon="5.8413">
      <desc>Volx</desc>
   </wpt>
   <trk>
      <trkseg>
         <trkpt lat="45.57732" lon="5.97264">
            <name>Leysse</name>
         </trkpt>
         <trkpt lat="45.65" lon="5.86667">
            <name>Leysse</name>
         </trkpt>
         <trkpt lat="45.57732" lon="5.97264">
            <name>Leysse</name>
         </trkpt>
         <trkpt lat="45.65" lon="5.86667">
            <name>Leysse</name>
         </trkpt>
         <trkpt lat="45.57732" lon="5.97264">
            <name>Leysse</name>
         </trkpt>
         <trkpt lat="45.65" lon="5.86667">
            <name>Leysse</name>
         </trkpt>
         <trkpt lat="47.7625" lon="6.63279">
            <name>Fresse</name>
         </trkpt>
         <trkpt lat="47.7575" lon="6.65722">
            <name>Fresse</name>
         </trkpt>
         <trkpt lat="45.7007" lon="2.77847">
            <name>Fresse</name>
         </trkpt>
         <trkpt lat="47.87589" lon="6.78589">
            <name>Fresse-sur-Moselle</name>
         </trkpt>
         <trkpt lat="45.57732" lon="5.97264">
            <name>Leysse</name>
         </trkpt>
         <trkpt lat="45.65" lon="5.86667">
            <name>Leysse</name>
         </trkpt>
         <trkpt lat="43.87383" lon="5.8413">
            <name>Volx</name>
         </trkpt>
      </trkseg>
   </trk>
</gpx>
